{
  "type": "FeatureCollection",
  "features": [
    {
      "type": "Feature",
      "geometry": {
        "type": "Point",
        "coordinates": [
          98.97694,
          18.79
        ]
      },
      "properties": {
        "station_name": "เชียงใหม่",
        "province": "เชียงใหม่",
        "temp": 33.4,
        "humidity": 56.0,
        "wind": 1.9
      }
    },
    {
      "type": "Feature",
      "geometry": {
        "type": "Point",
        "coordinates": [
          101.73333,
          17.45
        ]
      },
      "properties": {
        "station_name": "เลย",
        "province": "เลย",
        "temp": 34.4,
        "humidity": 52.0,
        "wind": 7.4
      }
    },
    {
      "type": "Feature",
      "geometry": {
        "type": "Point",
        "coordinates": [
          99.0025,
          17.24389
        ]
      },
      "properties": {
        "station_name": "เขื่อนภูมิพล",
        "province": "ตาก",
        "temp": 28.7,
        "humidity": 63.0,
        "wind": 0.0
      }
    },
    {
      "type": "Feature",
      "geometry": {
        "type": "Point",
        "coordinates": [
          103.06805,
          16.24722
        ]
      },
      "properties": {
        "station_name": "มหาสารคาม",
        "province": "มหาสารคาม",
        "temp": 36.2,
        "humidity": 42.0,
        "wind": 3.7
      }
    },
    {
      "type": "Feature",
      "geometry": {
        "type": "Point",
        "coordinates": [
          104.05,
          15.0
        ]
      },
      "properties": {
        "station_name": "ศรีสะเกษ",
        "province": "ศรีสะเกษ",
        "temp": 36.0,
        "humidity": 45.0,
        "wind": 0.0
      }
    },
    {
      "type": "Feature",
      "geometry": {
        "type": "Point",
        "coordinates": [
          100.76167,
          13.51667
        ]
      },
      "properties": {
        "station_name": "สมุทรปราการ สกษ.",
        "province": "สมุทรปราการ",
        "temp": 33.1,
        "humidity": 58.0,
        "wind": 16.7
      }
    },
    {
      "type": "Feature",
      "geometry": {
        "type": "Point",
        "coordinates": [
          100.03222,
          13.40778
        ]
      },
      "properties": {
        "station_name": "สมุทรสงคราม",
        "province": "สมุทรสงคราม",
        "temp": 32.1,
        "humidity": 66.0,
        "wind": 16.7
      }
    },
    {
      "type": "Feature",
      "geometry": {
        "type": "Point",
        "coordinates": [
          100.86944,
          12.92
        ]
      },
      "properties": {
        "station_name": "พัทยา",
        "province": "ชลบุรี",
        "temp": 33.5,
        "humidity": 61.0,
        "wind": 11.1
      }
    },
    {
      "type": "Feature",
      "geometry": {
        "type": "Point",
        "coordinates": [
          99.18847,
          10.49875
        ]
      },
      "properties": {
        "station_name": "ชุมพร",
        "province": "ชุมพร",
        "temp": 35.6,
        "humidity": 52.0,
        "wind": 9.3
      }
    },
    {
      "type": "Feature",
      "geometry": {
        "type": "Point",
        "coordinates": [
          98.4,
          7.88333
        ]
      },
      "properties": {
        "station_name": "ภูเก็ต",
        "province": "ภูเก็ต",
        "temp": 32.5,
        "humidity": 63.0,
        "wind": 14.8
      }
    },
    {
      "type": "Feature",
      "geometry": {
        "type": "Point",
        "coordinates": [
          101.81667,
          6.41667
        ]
      },
      "properties": {
        "station_name": "นราธิวาส",
        "province": "นราธิวาส",
        "temp": 33.5,
        "humidity": 49.0,
        "wind": 9.3
      }
    },
    {
      "type": "Feature",
      "geometry": {
        "type": "Point",
        "coordinates": [
          99.24475,
          17.63661
        ]
      },
      "properties": {
        "station_name": "เถิน",
        "province": "ลำปาง",
        "temp": 34.9,
        "humidity": 60.0,
        "wind": 1.9
      }
    },
    {
      "type": "Feature",
      "geometry": {
        "type": "Point",
        "coordinates": [
          102.8,
          17.38333
        ]
      },
      "properties": {
        "station_name": "อุดรธานี",
        "province": "อุดรธานี",
        "temp": 35.2,
        "humidity": 58.0,
        "wind": 16.7
      }
    },
    {
      "type": "Feature",
      "geometry": {
        "type": "Point",
        "coordinates": [
          98.86444,
          16.02472
        ]
      },
      "properties": {
        "station_name": "อุ้มผาง",
        "province": "ตาก",
        "temp": 31.1,
        "humidity": 64.0,
        "wind": 9.3
      }
    },
    {
      "type": "Feature",
      "geometry": {
        "type": "Point",
        "coordinates": [
          104.61805,
          15.90375
        ]
      },
      "properties": {
        "station_name": "อำนาจเจริญ",
        "province": "อำนาจเจริญ",
        "temp": 34.1,
        "humidity": 57.0,
        "wind": 7.4
      }
    },
    {
      "type": "Feature",
      "geometry": {
        "type": "Point",
        "coordinates": [
          100.725,
          14.53472
        ]
      },
      "properties": {
        "station_name": "พระนครศรีอยุธยา",
        "province": "พระนครศรีอยุธยา",
        "temp": 35.0,
        "humidity": 62.0,
        "wind": 3.7
      }
    },
    {
      "type": "Feature",
      "geometry": {
        "type": "Point",
        "coordinates": [
          101.3693,
          14.05842
        ]
      },
      "properties": {
        "station_name": "ปราจีนบุรี",
        "province": "ปราจีนบุรี",
        "temp": 35.6,
        "humidity": 53.0,
        "wind": 9.3
      }
    },
    {
      "type": "Feature",
      "geometry": {
        "type": "Point",
        "coordinates": [
          102.03472,
          13.78889
        ]
      },
      "properties": {
        "station_name": "สระแก้ว",
        "province": "สระแก้ว",
        "temp": 36.0,
        "humidity": 53.0,
        "wind": 5.6
      }
    },
    {
      "type": "Feature",
      "geometry": {
        "type": "Point",
        "coordinates": [
          100.87389,
          13.07803
        ]
      },
      "properties": {
        "station_name": "แหลมฉบัง",
        "province": "ชลบุรี",
        "temp": 33.7,
        "humidity": 61.0,
        "wind": 9.3
      }
    },
    {
      "type": "Feature",
      "geometry": {
        "type": "Point",
        "coordinates": [
          98.61667,
          9.98333
        ]
      },
      "properties": {
        "station_name": "ระนอง",
        "province": "ระนอง",
        "temp": 33.4,
        "humidity": 63.0,
        "wind": 13.0
      }
    },
    {
      "type": "Feature",
      "geometry": {
        "type": "Point",
        "coordinates": [
          99.04953,
          7.54267
        ]
      },
      "properties": {
        "station_name": "เกาะลันตา",
        "province": "กระบี่",
        "temp": 31.7,
        "humidity": 70.0,
        "wind": 11.1
      }
    },
    {
      "type": "Feature",
      "geometry": {
        "type": "Point",
        "coordinates": [
          99.03389,
          18.56722
        ]
      },
      "properties": {
        "station_name": "ลำพูน",
        "province": "ลำพูน",
        "temp": 33.3,
        "humidity": 54.0,
        "wind": 0.0
      }
    },
    {
      "type": "Feature",
      "geometry": {
        "type": "Point",
        "coordinates": [
          104.061,
          17.12503
        ]
      },
      "properties": {
        "station_name": "สกลนคร สกษ.",
        "province": "สกลนคร",
        "temp": 36.5,
        "humidity": 50.0,
        "wind": 9.3
      }
    },
    {
      "type": "Feature",
      "geometry": {
        "type": "Point",
        "coordinates": [
          101.15,
          16.43333
        ]
      },
      "properties": {
        "station_name": "เพชรบูรณ์",
        "province": "เพชรบูรณ์",
        "temp": 35.9,
        "humidity": 60.0,
        "wind": 0.0
      }
    },
    {
      "type": "Feature",
      "geometry": {
        "type": "Point",
        "coordinates": [
          100.53028,
          15.34944
        ]
      },
      "properties": {
        "station_name": "ตากฟ้า สกษ.",
        "province": "นครสวรรค์",
        "temp": 34.2,
        "humidity": 62.0,
        "wind": 3.7
      }
    },
    {
      "type": "Feature",
      "geometry": {
        "type": "Point",
        "coordinates": [
          100.61667,
          14.1
        ]
      },
      "properties": {
        "station_name": "ปทุมธานี สกษ.",
        "province": "ปทุมธานี",
        "temp": 35.5,
        "humidity": 55.0,
        "wind": 5.6
      }
    },
    {
      "type": "Feature",
      "geometry": {
        "type": "Point",
        "coordinates": [
          102.08603,
          14.9683
        ]
      },
      "properties": {
        "station_name": "นครราชสีมา",
        "province": "นครราชสีมา",
        "temp": 36.3,
        "humidity": 43.0,
        "wind": 9.3
      }
    },
    {
      "type": "Feature",
      "geometry": {
        "type": "Point",
        "coordinates": [
          98.63639,
          14.74222
        ]
      },
      "properties": {
        "station_name": "ทองผาภูมิ",
        "province": "กาญจนบุรี",
        "temp": 32.3,
        "humidity": 59.0,
        "wind": 5.6
      }
    },
    {
      "type": "Feature",
      "geometry": {
        "type": "Point",
        "coordinates": [
          101.34075,
          12.63369
        ]
      },
      "properties": {
        "station_name": "ระยอง",
        "province": "ระยอง",
        "temp": 32.0,
        "humidity": 66.0,
        "wind": 16.7
      }
    },
    {
      "type": "Feature",
      "geometry": {
        "type": "Point",
        "coordinates": [
          100.03361,
          9.45097
        ]
      },
      "properties": {
        "station_name": "เกาะสมุย",
        "province": "สุราษฎร์ธานี",
        "temp": 36.1,
        "humidity": 46.0,
        "wind": 7.4
      }
    },
    {
      "type": "Feature",
      "geometry": {
        "type": "Point",
        "coordinates": [
          99.61667,
          7.51667
        ]
      },
      "properties": {
        "station_name": "ตรัง",
        "province": "ตรัง",
        "temp": 32.7,
        "humidity": 58.0,
        "wind": 0.0
      }
    },
    {
      "type": "Feature",
      "geometry": {
        "type": "Point",
        "coordinates": [
          99.9,
          19.13333
        ]
      },
      "properties": {
        "station_name": "พะเยา",
        "province": "พะเยา",
        "temp": 32.5,
        "humidity": 54.0,
        "wind": 0.0
      }
    },
    {
      "type": "Feature",
      "geometry": {
        "type": "Point",
        "coordinates": [
          100.1,
          17.61667
        ]
      },
      "properties": {
        "station_name": "อุตรดิตถ์",
        "province": "อุตรดิตถ์",
        "temp": 35.7,
        "humidity": 48.0,
        "wind": 5.6
      }
    },
    {
      "type": "Feature",
      "geometry": {
        "type": "Point",
        "coordinates": [
          99.14333,
          16.87833
        ]
      },
      "properties": {
        "station_name": "ตาก",
        "province": "ตาก",
        "temp": 31.0,
        "humidity": 77.0,
        "wind": 7.4
      }
    },
    {
      "type": "Feature",
      "geometry": {
        "type": "Point",
        "coordinates": [
          104.72889,
          16.54139
        ]
      },
      "properties": {
        "station_name": "มุกดาหาร",
        "province": "มุกดาหาร",
        "temp": 36.9,
        "humidity": 49.0,
        "wind": 5.6
      }
    },
    {
      "type": "Feature",
      "geometry": {
        "type": "Point",
        "coordinates": [
          105.0235,
          15.23914
        ]
      },
      "properties": {
        "station_name": "อุบลราชธานี สกษ.",
        "province": "อุบลราชธานี",
        "temp": 35.7,
        "humidity": 51.0,
        "wind": 5.6
      }
    },
    {
      "type": "Feature",
      "geometry": {
        "type": "Point",
        "coordinates": [
          101.18736,
          15.26667
        ]
      },
      "properties": {
        "station_name": "บัวชุม  ",
        "province": "ลพบุรี",
        "temp": 39.0,
        "humidity": 31.0,
        "wind": 3.7
      }
    },
    {
      "type": "Feature",
      "geometry": {
        "type": "Point",
        "coordinates": [
          103.24808,
          15.22575
        ]
      },
      "properties": {
        "station_name": "บุรีรัมย์",
        "province": "บุรีรัมย์",
        "temp": 36.5,
        "humidity": 39.0,
        "wind": 14.8
      }
    },
    {
      "type": "Feature",
      "geometry": {
        "type": "Point",
        "coordinates": [
          100.98333,
          13.36667
        ]
      },
      "properties": {
        "station_name": "ชลบุรี",
        "province": "ชลบุรี",
        "temp": 35.4,
        "humidity": 46.0,
        "wind": 7.4
      }
    },
    {
      "type": "Feature",
      "geometry": {
        "type": "Point",
        "coordinates": [
          99.73333,
          12.58333
        ]
      },
      "properties": {
        "station_name": "หนองพลับ สกษ.",
        "province": "ประจวบคีรีขันธ์",
        "temp": 34.3,
        "humidity": 51.0,
        "wind": 13.0
      }
    },
    {
      "type": "Feature",
      "geometry": {
        "type": "Point",
        "coordinates": [
          100.16667,
          7.58333
        ]
      },
      "properties": {
        "station_name": "พัทลุง สกษ.",
        "province": "พัทลุง",
        "temp": 32.3,
        "humidity": 71.0,
        "wind": 11.1
      }
    },
    {
      "type": "Feature",
      "geometry": {
        "type": "Point",
        "coordinates": [
          101.15,
          6.78333
        ]
      },
      "properties": {
        "station_name": "ปัตตานี",
        "province": "ปัตตานี",
        "temp": 33.2,
        "humidity": 60.0,
        "wind": 5.6
      }
    },
    {
      "type": "Feature",
      "geometry": {
        "type": "Point",
        "coordinates": [
          99.88139,
          19.96139
        ]
      },
      "properties": {
        "station_name": "เชียงราย",
        "province": "เชียงราย",
        "temp": 32.2,
        "humidity": 56.0,
        "wind": 7.4
      }
    },
    {
      "type": "Feature",
      "geometry": {
        "type": "Point",
        "coordinates": [
          100.8025,
          19.11056
        ]
      },
      "properties": {
        "station_name": "ท่าวังผา",
        "province": "น่าน",
        "temp": 33.7,
        "humidity": 56.0,
        "wind": 5.6
      }
    },
    {
      "type": "Feature",
      "geometry": {
        "type": "Point",
        "coordinates": [
          99.8,
          17.10611
        ]
      },
      "properties": {
        "station_name": "สุโขทัย",
        "province": "สุโขทัย",
        "temp": 32.8,
        "humidity": 54.0,
        "wind": 11.1
      }
    },
    {
      "type": "Feature",
      "geometry": {
        "type": "Point",
        "coordinates": [
          102.78972,
          16.46111
        ]
      },
      "properties": {
        "station_name": "ขอนแก่น",
        "province": "ขอนแก่น",
        "temp": 36.2,
        "humidity": 52.0,
        "wind": 5.6
      }
    },
    {
      "type": "Feature",
      "geometry": {
        "type": "Point",
        "coordinates": [
          103.60844,
          16.07322
        ]
      },
      "properties": {
        "station_name": "ร้อยเอ็ด สกษ.",
        "province": "ร้อยเอ็ด",
        "temp": 35.3,
        "humidity": 56.0,
        "wind": 5.6
      }
    },
    {
      "type": "Feature",
      "geometry": {
        "type": "Point",
        "coordinates": [
          99.86472,
          14.30361
        ]
      },
      "properties": {
        "station_name": "อู่ทอง สกษ.",
        "province": "สุพรรณบุรี",
        "temp": 35.4,
        "humidity": 53.0,
        "wind": 14.8
      }
    },
    {
      "type": "Feature",
      "geometry": {
        "type": "Point",
        "coordinates": [
          103.45,
          14.88333
        ]
      },
      "properties": {
        "station_name": "สุรินทร์ สกษ.",
        "province": "สุรินทร์",
        "temp": 36.2,
        "humidity": 50.0,
        "wind": 11.1
      }
    },
    {
      "type": "Feature",
      "geometry": {
        "type": "Point",
        "coordinates": [
          100.60611,
          13.66639
        ]
      },
      "properties": {
        "station_name": "กรุงเทพฯ บางนา สกษ.",
        "province": "กรุงเทพมหานคร",
        "temp": 35.9,
        "humidity": 48.0,
        "wind": 9.3
      }
    },
    {
      "type": "Feature",
      "geometry": {
        "type": "Point",
        "coordinates": [
          99.83333,
          11.83333
        ]
      },
      "properties": {
        "station_name": "ประจวบคีรีขันธ์",
        "province": "ประจวบคีรีขันธ์",
        "temp": 36.0,
        "humidity": 45.0,
        "wind": 5.6
      }
    },
    {
      "type": "Feature",
      "geometry": {
        "type": "Point",
        "coordinates": [
          100.0,
          8.35931
        ]
      },
      "properties": {
        "station_name": "นครศรีธรรมราช สกษ.",
        "province": "นครศรีธรรมราช",
        "temp": 34.9,
        "humidity": 56.0,
        "wind": 1.9
      }
    },
    {
      "type": "Feature",
      "geometry": {
        "type": "Point",
        "coordinates": [
          100.43333,
          6.91667
        ]
      },
      "properties": {
        "station_name": "หาดใหญ่",
        "province": "สงขลา",
        "temp": 33.4,
        "humidity": 58.0,
        "wind": 3.7
      }
    },
    {
      "type": "Feature",
      "geometry": {
        "type": "Point",
        "coordinates": [
          97.93333,
          18.16667
        ]
      },
      "properties": {
        "station_name": "แม่สะเรียง",
        "province": "แม่ฮ่องสอน",
        "temp": 30.5,
        "humidity": 78.0,
        "wind": 0.0
      }
    },
    {
      "type": "Feature",
      "geometry": {
        "type": "Point",
        "coordinates": [
          100.75,
          18.86667
        ]
      },
      "properties": {
        "station_name": "น่าน สกษ.",
        "province": "น่าน",
        "temp": 32.3,
        "humidity": 60.0,
        "wind": 5.6
      }
    },
    {
      "type": "Feature",
      "geometry": {
        "type": "Point",
        "coordinates": [
          102.42944,
          17.2325
        ]
      },
      "properties": {
        "station_name": "หนองบัวลำภู",
        "province": "หนองบัวลำภู",
        "temp": 33.1,
        "humidity": 54.0,
        "wind": 5.6
      }
    },
    {
      "type": "Feature",
      "geometry": {
        "type": "Point",
        "coordinates": [
          99.52697,
          16.48681
        ]
      },
      "properties": {
        "station_name": "กำแพงเพชร",
        "province": "กำแพงเพชร",
        "temp": 33.1,
        "humidity": 54.0,
        "wind": 3.7
      }
    },
    {
      "type": "Feature",
      "geometry": {
        "type": "Point",
        "coordinates": [
          103.74389,
          16.02
        ]
      },
      "properties": {
        "station_name": "ร้อยเอ็ด",
        "province": "ร้อยเอ็ด",
        "temp": 36.6,
        "humidity": 48.0,
        "wind": 7.4
      }
    },
    {
      "type": "Feature",
      "geometry": {
        "type": "Point",
        "coordinates": [
          100.13889,
          14.47444
        ]
      },
      "properties": {
        "station_name": "สุพรรณบุรี",
        "province": "สุพรรณบุรี",
        "temp": 34.5,
        "humidity": 64.0,
        "wind": 7.4
      }
    },
    {
      "type": "Feature",
      "geometry": {
        "type": "Point",
        "coordinates": [
          103.5,
          14.88333
        ]
      },
      "properties": {
        "station_name": "สุรินทร์",
        "province": "สุรินทร์",
        "temp": 37.1,
        "humidity": 46.0,
        "wind": 11.1
      }
    },
    {
      "type": "Feature",
      "geometry": {
        "type": "Point",
        "coordinates": [
          100.56805,
          13.70694
        ]
      },
      "properties": {
        "station_name": "กรุงเทพฯ ท่าเรือคลองเตย",
        "province": "กรุงเทพมหานคร",
        "temp": 35.4,
        "humidity": 51.0,
        "wind": 7.4
      }
    },
    {
      "type": "Feature",
      "geometry": {
        "type": "Point",
        "coordinates": [
          102.17305,
          12.50861
        ]
      },
      "properties": {
        "station_name": "พลิ้ว สกษ.",
        "province": "จันทบุรี",
        "temp": 33.1,
        "humidity": 72.0,
        "wind": 7.4
      }
    },
    {
      "type": "Feature",
      "geometry": {
        "type": "Point",
        "coordinates": [
          99.94722,
          8.53778
        ]
      },
      "properties": {
        "station_name": "นครศรีธรรมราช",
        "province": "นครศรีธรรมราช",
        "temp": 34.5,
        "humidity": 57.0,
        "wind": 0.0
      }
    },
    {
      "type": "Feature",
      "geometry": {
        "type": "Point",
        "coordinates": [
          100.60769,
          7.18211
        ]
      },
      "properties": {
        "station_name": "สงขลา",
        "province": "สงขลา",
        "temp": 32.3,
        "humidity": 60.0,
        "wind": 5.6
      }
    },
    {
      "type": "Feature",
      "geometry": {
        "type": "Point",
        "coordinates": [
          99.51667,
          18.28333
        ]
      },
      "properties": {
        "station_name": "ลำปาง",
        "province": "ลำปาง",
        "temp": 33.9,
        "humidity": 51.0,
        "wind": 0.0
      }
    },
    {
      "type": "Feature",
      "geometry": {
        "type": "Point",
        "coordinates": [
          101.73333,
          17.4
        ]
      },
      "properties": {
        "station_name": "เลย สกษ.",
        "province": "เลย",
        "temp": 35.2,
        "humidity": 59.0,
        "wind": 3.7
      }
    },
    {
      "type": "Feature",
      "geometry": {
        "type": "Point",
        "coordinates": [
          98.93333,
          16.75
        ]
      },
      "properties": {
        "station_name": "ดอยมูเซอร์ สกษ.",
        "province": "ตาก",
        "temp": 25.8,
        "humidity": 81.0,
        "wind": 13.0
      }
    },
    {
      "type": "Feature",
      "geometry": {
        "type": "Point",
        "coordinates": [
          103.58833,
          16.3325
        ]
      },
      "properties": {
        "station_name": "กาฬสินธุ์",
        "province": "กาฬสินธุ์",
        "temp": 36.3,
        "humidity": 45.0,
        "wind": 13.0
      }
    },
    {
      "type": "Feature",
      "geometry": {
        "type": "Point",
        "coordinates": [
          100.03889,
          15.37417
        ]
      },
      "properties": {
        "station_name": "อุทัยธานี",
        "province": "อุทัยธานี",
        "temp": 35.8,
        "humidity": 50.0,
        "wind": 0.0
      }
    },
    {
      "type": "Feature",
      "geometry": {
        "type": "Point",
        "coordinates": [
          100.7675,
          13.68639
        ]
      },
      "properties": {
        "station_name": "สนามบินสุวรรณภูมิ",
        "province": "สมุทรปราการ",
        "temp": 34.0,
        "humidity": 57.0,
        "wind": 22.2
      }
    },
    {
      "type": "Feature",
      "geometry": {
        "type": "Point",
        "coordinates": [
          102.50417,
          13.68869
        ]
      },
      "properties": {
        "station_name": "อรัญประเทศ",
        "province": "สระแก้ว",
        "temp": 35.6,
        "humidity": 42.0,
        "wind": 13.0
      }
    },
    {
      "type": "Feature",
      "geometry": {
        "type": "Point",
        "coordinates": [
          100.98333,
          12.68333
        ]
      },
      "properties": {
        "station_name": "สัตหีบ",
        "province": "ชลบุรี",
        "temp": 35.5,
        "humidity": 57.0,
        "wind": 14.8
      }
    },
    {
      "type": "Feature",
      "geometry": {
        "type": "Point",
        "coordinates": [
          99.1,
          10.33333
        ]
      },
      "properties": {
        "station_name": "สวี สกษ.",
        "province": "ชุมพร",
        "temp": 37.2,
        "humidity": 47.0,
        "wind": 5.6
      }
    },
    {
      "type": "Feature",
      "geometry": {
        "type": "Point",
        "coordinates": [
          98.31444,
          8.145
        ]
      },
      "properties": {
        "station_name": "ภูเก็ต (ศูนย์ฯ)",
        "province": "ภูเก็ต",
        "temp": 32.8,
        "humidity": 60.0,
        "wind": 7.4
      }
    },
    {
      "type": "Feature",
      "geometry": {
        "type": "Point",
        "coordinates": [
          97.97578,
          19.29897
        ]
      },
      "properties": {
        "station_name": "แม่ฮ่องสอน",
        "province": "แม่ฮ่องสอน",
        "temp": 32.2,
        "humidity": 59.0,
        "wind": 0.0
      }
    },
    {
      "type": "Feature",
      "geometry": {
        "type": "Point",
        "coordinates": [
          100.77778,
          18.77972
        ]
      },
      "properties": {
        "station_name": "น่าน",
        "province": "น่าน",
        "temp": 34.2,
        "humidity": 57.0,
        "wind": 0.0
      }
    },
    {
      "type": "Feature",
      "geometry": {
        "type": "Point",
        "coordinates": [
          104.77367,
          17.27642
        ]
      },
      "properties": {
        "station_name": "นครพนม สกษ.",
        "province": "นครพนม",
        "temp": 34.5,
        "humidity": 57.0,
        "wind": 5.6
      }
    },
    {
      "type": "Feature",
      "geometry": {
        "type": "Point",
        "coordinates": [
          101.108,
          15.657
        ]
      },
      "properties": {
        "station_name": "วิเชียรบุรี",
        "province": "เพชรบูรณ์",
        "temp": 35.1,
        "humidity": 50.0,
        "wind": 0.0
      }
    },
    {
      "type": "Feature",
      "geometry": {
        "type": "Point",
        "coordinates": [
          102.03333,
          15.8
        ]
      },
      "properties": {
        "station_name": "ชัยภูมิ",
        "province": "ชัยภูมิ",
        "temp": 38.0,
        "humidity": 41.0,
        "wind": 9.3
      }
    },
    {
      "type": "Feature",
      "geometry": {
        "type": "Point",
        "coordinates": [
          99.79239,
          13.48931
        ]
      },
      "properties": {
        "station_name": "ราชบุรี",
        "province": "ราชบุรี",
        "temp": 36.4,
        "humidity": 51.0,
        "wind": 16.7
      }
    },
    {
      "type": "Feature",
      "geometry": {
        "type": "Point",
        "coordinates": [
          102.16861,
          14.71889
        ]
      },
      "properties": {
        "station_name": "โชคชัย",
        "province": "นครราชสีมา",
        "temp": 37.2,
        "humidity": 41.0,
        "wind": 14.8
      }
    },
    {
      "type": "Feature",
      "geometry": {
        "type": "Point",
        "coordinates": [
          100.56,
          13.72639
        ]
      },
      "properties": {
        "station_name": "กรุงเทพมหานคร",
        "province": "กรุงเทพมหานคร",
        "temp": 35.3,
        "humidity": 40.0,
        "wind": 5.6
      }
    },
    {
      "type": "Feature",
      "geometry": {
        "type": "Point",
        "coordinates": [
          102.11333,
          12.61667
        ]
      },
      "properties": {
        "station_name": "จันทบุรี",
        "province": "จันทบุรี",
        "temp": 33.7,
        "humidity": 63.0,
        "wind": 11.1
      }
    },
    {
      "type": "Feature",
      "geometry": {
        "type": "Point",
        "coordinates": [
          99.25825,
          8.57022
        ]
      },
      "properties": {
        "station_name": "พระแสง สอท.",
        "province": "สุราษฎร์ธานี",
        "temp": 33.4,
        "humidity": 65.0,
        "wind": 3.7
      }
    },
    {
      "type": "Feature",
      "geometry": {
        "type": "Point",
        "coordinates": [
          100.39056,
          6.79806
        ]
      },
      "properties": {
        "station_name": "สะเดา",
        "province": "สงขลา",
        "temp": 33.7,
        "humidity": 54.0,
        "wind": 5.6
      }
    },
    {
      "type": "Feature",
      "geometry": {
        "type": "Point",
        "coordinates": [
          100.16667,
          18.16667
        ]
      },
      "properties": {
        "station_name": "แพร่",
        "province": "แพร่",
        "temp": 34.0,
        "humidity": 57.0,
        "wind": 0.0
      }
    },
    {
      "type": "Feature",
      "geometry": {
        "type": "Point",
        "coordinates": [
          104.7825,
          17.41083
        ]
      },
      "properties": {
        "station_name": "นครพนม",
        "province": "นครพนม",
        "temp": 34.7,
        "humidity": 59.0,
        "wind": 7.4
      }
    },
    {
      "type": "Feature",
      "geometry": {
        "type": "Point",
        "coordinates": [
          101.24944,
          16.77361
        ]
      },
      "properties": {
        "station_name": "หล่มสัก",
        "province": "เพชรบูรณ์",
        "temp": 33.9,
        "humidity": 51.0,
        "wind": 3.7
      }
    },
    {
      "type": "Feature",
      "geometry": {
        "type": "Point",
        "coordinates": [
          100.18333,
          15.15
        ]
      },
      "properties": {
        "station_name": "ชัยนาท สกษ.",
        "province": "ชัยนาท",
        "temp": 34.5,
        "humidity": 57.0,
        "wind": 5.6
      }
    },
    {
      "type": "Feature",
      "geometry": {
        "type": "Point",
        "coordinates": [
          101.45833,
          13.51556
        ]
      },
      "properties": {
        "station_name": "ฉะเชิงเทรา",
        "province": "ฉะเชิงเทรา",
        "temp": 35.8,
        "humidity": 51.0,
        "wind": 3.7
      }
    },
    {
      "type": "Feature",
      "geometry": {
        "type": "Point",
        "coordinates": [
          101.33194,
          14.64389
        ]
      },
      "properties": {
        "station_name": "ปากช่อง สกษ.",
        "province": "นครราชสีมา",
        "temp": 32.7,
        "humidity": 56.0,
        "wind": 25.9
      }
    },
    {
      "type": "Feature",
      "geometry": {
        "type": "Point",
        "coordinates": [
          99.97,
          14.01167
        ]
      },
      "properties": {
        "station_name": "นครปฐม",
        "province": "นครปฐม",
        "temp": 34.7,
        "humidity": 57.0,
        "wind": 9.3
      }
    },
    {
      "type": "Feature",
      "geometry": {
        "type": "Point",
        "coordinates": [
          101.135,
          12.735
        ]
      },
      "properties": {
        "station_name": "ห้วยโป่ง สกษ.",
        "province": "ระยอง",
        "temp": 34.2,
        "humidity": 60.0,
        "wind": 3.7
      }
    },
    {
      "type": "Feature",
      "geometry": {
        "type": "Point",
        "coordinates": [
          99.63333,
          9.1
        ]
      },
      "properties": {
        "station_name": "สุราษฎร์ธานี สกษ.",
        "province": "สุราษฎร์ธานี",
        "temp": 35.0,
        "humidity": 54.0,
        "wind": 16.7
      }
    },
    {
      "type": "Feature",
      "geometry": {
        "type": "Point",
        "coordinates": [
          100.5,
          7.0
        ]
      },
      "properties": {
        "station_name": "คอหงษ์ สกษ.",
        "province": "สงขลา",
        "temp": 33.7,
        "humidity": 58.0,
        "wind": 7.4
      }
    },
    {
      "type": "Feature",
      "geometry": {
        "type": "Point",
        "coordinates": [
          99.28333,
          18.31667
        ]
      },
      "properties": {
        "station_name": "ลำปาง สกษ.",
        "province": "ลำปาง",
        "temp": 32.7,
        "humidity": 56.0,
        "wind": 7.4
      }
    },
    {
      "type": "Feature",
      "geometry": {
        "type": "Point",
        "coordinates": [
          104.13333,
          17.15
        ]
      },
      "properties": {
        "station_name": "สกลนคร",
        "province": "สกลนคร",
        "temp": 34.5,
        "humidity": 54.0,
        "wind": 11.1
      }
    },
    {
      "type": "Feature",
      "geometry": {
        "type": "Point",
        "coordinates": [
          100.2793,
          16.79481
        ]
      },
      "properties": {
        "station_name": "พิษณุโลก",
        "province": "พิษณุโลก",
        "temp": 35.3,
        "humidity": 51.0,
        "wind": 7.4
      }
    },
    {
      "type": "Feature",
      "geometry": {
        "type": "Point",
        "coordinates": [
          100.13236,
          15.67183
        ]
      },
      "properties": {
        "station_name": "นครสวรรค์ ",
        "province": "นครสวรรค์",
        "temp": 36.3,
        "humidity": 59.0,
        "wind": 9.3
      }
    },
    {
      "type": "Feature",
      "geometry": {
        "type": "Point",
        "coordinates": [
          101.39278,
          14.36222
        ]
      },
      "properties": {
        "station_name": "นครนายก",
        "province": "นครนายก",
        "temp": 26.6,
        "humidity": 71.0,
        "wind": 1.9
      }
    },
    {
      "type": "Feature",
      "geometry": {
        "type": "Point",
        "coordinates": [
          101.70722,
          13.98333
        ]
      },
      "properties": {
        "station_name": "กบินทร์บุรี",
        "province": "ปราจีนบุรี",
        "temp": 34.0,
        "humidity": 56.0,
        "wind": 18.5
      }
    },
    {
      "type": "Feature",
      "geometry": {
        "type": "Point",
        "coordinates": [
          99.53583,
          14.0225
        ]
      },
      "properties": {
        "station_name": "กาญจนบุรี",
        "province": "กาญจนบุรี",
        "temp": 37.0,
        "humidity": 42.0,
        "wind": 9.3
      }
    },
    {
      "type": "Feature",
      "geometry": {
        "type": "Point",
        "coordinates": [
          100.06056,
          12.99944
        ]
      },
      "properties": {
        "station_name": "เพชรบุรี",
        "province": "เพชรบุรี",
        "temp": 32.8,
        "humidity": 63.0,
        "wind": 11.1
      }
    },
    {
      "type": "Feature",
      "geometry": {
        "type": "Point",
        "coordinates": [
          99.15194,
          9.13556
        ]
      },
      "properties": {
        "station_name": "สุราษฎร์ธานี",
        "province": "สุราษฎร์ธานี",
        "temp": 34.2,
        "humidity": 57.0,
        "wind": 7.4
      }
    },
    {
      "type": "Feature",
      "geometry": {
        "type": "Point",
        "coordinates": [
          98.97528,
          8.10361
        ]
      },
      "properties": {
        "station_name": "กระบี่",
        "province": "กระบี่",
        "temp": 32.8,
        "humidity": 71.0,
        "wind": 5.6
      }
    },
    {
      "type": "Feature",
      "geometry": {
        "type": "Point",
        "coordinates": [
          99.78278,
          19.87083
        ]
      },
      "properties": {
        "station_name": "เชียงราย สกษ.",
        "province": "เชียงราย",
        "temp": 31.4,
        "humidity": 59.0,
        "wind": 11.1
      }
    },
    {
      "type": "Feature",
      "geometry": {
        "type": "Point",
        "coordinates": [
          100.88353,
          19.41194
        ]
      },
      "properties": {
        "station_name": "ทุ่งช้าง",
        "province": "น่าน",
        "temp": 32.8,
        "humidity": 62.0,
        "wind": 3.7
      }
    },
    {
      "type": "Feature",
      "geometry": {
        "type": "Point",
        "coordinates": [
          99.86167,
          17.16136
        ]
      },
      "properties": {
        "station_name": "ศรีสำโรง สกษ.",
        "province": "สุโขทัย",
        "temp": 34.8,
        "humidity": 49.0,
        "wind": 11.1
      }
    },
    {
      "type": "Feature",
      "geometry": {
        "type": "Point",
        "coordinates": [
          102.81667,
          16.33333
        ]
      },
      "properties": {
        "station_name": "ท่าพระ สกษ.",
        "province": "ขอนแก่น",
        "temp": 35.5,
        "humidity": 50.0,
        "wind": 0.0
      }
    },
    {
      "type": "Feature",
      "geometry": {
        "type": "Point",
        "coordinates": [
          104.21436,
          15.79494
        ]
      },
      "properties": {
        "station_name": "ยโสธร",
        "province": "ยโสธร",
        "temp": 35.9,
        "humidity": 33.0,
        "wind": 5.6
      }
    },
    {
      "type": "Feature",
      "geometry": {
        "type": "Point",
        "coordinates": [
          100.645,
          14.79972
        ]
      },
      "properties": {
        "station_name": "ลพบุรี",
        "province": "ลพบุรี",
        "temp": 34.9,
        "humidity": 62.0,
        "wind": 9.3
      }
    },
    {
      "type": "Feature",
      "geometry": {
        "type": "Point",
        "coordinates": [
          103.68333,
          15.31667
        ]
      },
      "properties": {
        "station_name": "ท่าตูม",
        "province": "สุรินทร์",
        "temp": 37.1,
        "humidity": 44.0,
        "wind": 13.0
      }
    },
    {
      "type": "Feature",
      "geometry": {
        "type": "Point",
        "coordinates": [
          100.605,
          13.91917
        ]
      },
      "properties": {
        "station_name": "สนามบินดอนเมือง",
        "province": "กรุงเทพมหานคร",
        "temp": 35.4,
        "humidity": 49.0,
        "wind": 9.3
      }
    },
    {
      "type": "Feature",
      "geometry": {
        "type": "Point",
        "coordinates": [
          99.9625,
          12.58611
        ]
      },
      "properties": {
        "station_name": "หัวหิน",
        "province": "ประจวบคีรีขันธ์",
        "temp": 32.4,
        "humidity": 66.0,
        "wind": 14.8
      }
    },
    {
      "type": "Feature",
      "geometry": {
        "type": "Point",
        "coordinates": [
          99.50667,
          8.42472
        ]
      },
      "properties": {
        "station_name": "ฉวาง",
        "province": "นครศรีธรรมราช",
        "temp": 33.4,
        "humidity": 61.0,
        "wind": 3.7
      }
    },
    {
      "type": "Feature",
      "geometry": {
        "type": "Point",
        "coordinates": [
          100.08333,
          6.65
        ]
      },
      "properties": {
        "station_name": "สตูล",
        "province": "สตูล",
        "temp": 33.5,
        "humidity": 73.0,
        "wind": 11.1
      }
    },
    {
      "type": "Feature",
      "geometry": {
        "type": "Point",
        "coordinates": [
          99.04833,
          19.93139
        ]
      },
      "properties": {
        "station_name": "ดอยอ่างขาง",
        "province": "เชียงใหม่",
        "temp": 22.5,
        "humidity": 85.0,
        "wind": 0.0
      }
    },
    {
      "type": "Feature",
      "geometry": {
        "type": "Point",
        "coordinates": [
          102.73303,
          17.86717
        ]
      },
      "properties": {
        "station_name": "หนองคาย",
        "province": "หนองคาย",
        "temp": 35.2,
        "humidity": 55.0,
        "wind": 5.6
      }
    },
    {
      "type": "Feature",
      "geometry": {
        "type": "Point",
        "coordinates": [
          98.55083,
          16.65917
        ]
      },
      "properties": {
        "station_name": "แม่สอด",
        "province": "ตาก",
        "temp": 32.0,
        "humidity": 54.0,
        "wind": 7.4
      }
    },
    {
      "type": "Feature",
      "geometry": {
        "type": "Point",
        "coordinates": [
          100.2925,
          16.43806
        ]
      },
      "properties": {
        "station_name": "พิจิตร สกษ.",
        "province": "พิจิตร",
        "temp": 35.0,
        "humidity": 49.0,
        "wind": 3.7
      }
    },
    {
      "type": "Feature",
      "geometry": {
        "type": "Point",
        "coordinates": [
          104.86667,
          15.25
        ]
      },
      "properties": {
        "station_name": "อุบลราชธานี (ศูนย์ฯ)",
        "province": "อุบลราชธานี",
        "temp": 35.9,
        "humidity": 45.0,
        "wind": 7.4
      }
    },
    {
      "type": "Feature",
      "geometry": {
        "type": "Point",
        "coordinates": [
          100.59944,
          13.37722
        ]
      },
      "properties": {
        "station_name": "นำร่อง",
        "province": "สมุทรปราการ",
        "temp": 31.5,
        "humidity": 79.0,
        "wind": 16.7
      }
    },
    {
      "type": "Feature",
      "geometry": {
        "type": "Point",
        "coordinates": [
          102.8,
          14.58333
        ]
      },
      "properties": {
        "station_name": "นางรอง",
        "province": "บุรีรัมย์",
        "temp": 35.9,
        "humidity": 41.0,
        "wind": 13.0
      }
    },
    {
      "type": "Feature",
      "geometry": {
        "type": "Point",
        "coordinates": [
          100.80194,
          13.16167
        ]
      },
      "properties": {
        "station_name": "เกาะสีชัง",
        "province": "ชลบุรี",
        "temp": 32.7,
        "humidity": 65.0,
        "wind": 11.1
      }
    },
    {
      "type": "Feature",
      "geometry": {
        "type": "Point",
        "coordinates": [
          102.87808,
          11.78033
        ]
      },
      "properties": {
        "station_name": "ตราด",
        "province": "ตราด",
        "temp": 27.0,
        "humidity": 97.0,
        "wind": 1.9
      }
    },
    {
      "type": "Feature",
      "geometry": {
        "type": "Point",
        "coordinates": [
          98.25222,
          8.68417
        ]
      },
      "properties": {
        "station_name": "ตะกั่วป่า",
        "province": "พังงา",
        "temp": 30.6,
        "humidity": 76.0,
        "wind": 9.3
      }
    },
    {
      "type": "Feature",
      "geometry": {
        "type": "Point",
        "coordinates": [
          101.28333,
          6.51667
        ]
      },
      "properties": {
        "station_name": "ยะลา สกษ.",
        "province": "ยะลา",
        "temp": 34.3,
        "humidity": 62.0,
        "wind": 9.3
      }
    }
  ]
}