{
  "type": "FeatureCollection",
  "features": [
    {
      "type": "Feature",
      "geometry": {
        "type": "Point",
        "coordinates": [
          99.04833,
          19.93139
        ]
      },
      "properties": {
        "date": "06/26/2026",
        "metric": "min_temp",
        "value": 18.8,
        "station": "ดอยอ่างขาง",
        "province": "เชียงใหม่"
      }
    },
    {
      "type": "Feature",
      "geometry": {
        "type": "Point",
        "coordinates": [
          103.74389,
          16.02
        ]
      },
      "properties": {
        "date": "06/26/2026",
        "metric": "max_temp",
        "value": 37.2,
        "station": "ร้อยเอ็ด",
        "province": "ร้อยเอ็ด"
      }
    },
    {
      "type": "Feature",
      "geometry": {
        "type": "Point",
        "coordinates": [
          98.25222,
          8.68417
        ]
      },
      "properties": {
        "date": "06/26/2026",
        "metric": "max_rainfall_24hr",
        "value": 73.6,
        "station": "ตะกั่วป่า",
        "province": "พังงา"
      }
    },
    {
      "type": "Feature",
      "geometry": {
        "type": "Point",
        "coordinates": [
          99.04833,
          19.93139
        ]
      },
      "properties": {
        "date": "06/27/2026",
        "metric": "min_temp",
        "value": 18.3,
        "station": "ดอยอ่างขาง",
        "province": "เชียงใหม่"
      }
    },
    {
      "type": "Feature",
      "geometry": {
        "type": "Point",
        "coordinates": [
          100.80194,
          13.16167
        ]
      },
      "properties": {
        "date": "06/27/2026",
        "metric": "max_temp",
        "value": 30.1,
        "station": "เกาะสีชัง",
        "province": "ชลบุรี"
      }
    },
    {
      "type": "Feature",
      "geometry": {
        "type": "Point",
        "coordinates": [
          99.04953,
          7.54267
        ]
      },
      "properties": {
        "date": "06/27/2026",
        "metric": "max_rainfall_24hr",
        "value": 99.6,
        "station": "เกาะลันตา",
        "province": "กระบี่"
      }
    }
  ]
}