{
  "type": "FeatureCollection",
  "features": [
    {
      "type": "Feature",
      "geometry": {
        "type": "Point",
        "coordinates": [
          99.04833,
          19.93139
        ]
      },
      "properties": {
        "date": "06/26/2026",
        "metric": "min_temp",
        "value": 18.8,
        "station": "ดอยอ่างขาง",
        "province": "เชียงใหม่"
      }
    },
    {
      "type": "Feature",
      "geometry": {
        "type": "Point",
        "coordinates": [
          103.74389,
          16.02
        ]
      },
      "properties": {
        "date": "06/26/2026",
        "metric": "max_temp",
        "value": 37.2,
        "station": "ร้อยเอ็ด",
        "province": "ร้อยเอ็ด"
      }
    },
    {
      "type": "Feature",
      "geometry": {
        "type": "Point",
        "coordinates": [
          98.25222,
          8.68417
        ]
      },
      "properties": {
        "date": "06/26/2026",
        "metric": "max_rainfall_24hr",
        "value": 73.6,
        "station": "ตะกั่วป่า",
        "province": "พังงา"
      }
    },
    {
      "type": "Feature",
      "geometry": {
        "type": "Point",
        "coordinates": [
          99.04833,
          19.93139
        ]
      },
      "properties": {
        "date": "06/27/2026",
        "metric": "min_temp",
        "value": 17.8,
        "station": "ดอยอ่างขาง",
        "province": "เชียงใหม่"
      }
    },
    {
      "type": "Feature",
      "geometry": {
        "type": "Point",
        "coordinates": [
          103.06805,
          16.24722
        ]
      },
      "properties": {
        "date": "06/27/2026",
        "metric": "max_temp",
        "value": 36.5,
        "station": "มหาสารคาม",
        "province": "มหาสารคาม"
      }
    },
    {
      "type": "Feature",
      "geometry": {
        "type": "Point",
        "coordinates": [
          99.04953,
          7.54267
        ]
      },
      "properties": {
        "date": "06/27/2026",
        "metric": "max_rainfall_24hr",
        "value": 111.2,
        "station": "เกาะลันตา",
        "province": "กระบี่"
      }
    },
    {
      "type": "Feature",
      "geometry": {
        "type": "Point",
        "coordinates": [
          99.04833,
          19.93139
        ]
      },
      "properties": {
        "date": "06/28/2026",
        "metric": "min_temp",
        "value": 19.2,
        "station": "ดอยอ่างขาง",
        "province": "เชียงใหม่"
      }
    },
    {
      "type": "Feature",
      "geometry": {
        "type": "Point",
        "coordinates": [
          100.1,
          17.61667
        ]
      },
      "properties": {
        "date": "06/28/2026",
        "metric": "max_temp",
        "value": 37.5,
        "station": "อุตรดิตถ์",
        "province": "อุตรดิตถ์"
      }
    },
    {
      "type": "Feature",
      "geometry": {
        "type": "Point",
        "coordinates": [
          104.21436,
          15.79494
        ]
      },
      "properties": {
        "date": "06/28/2026",
        "metric": "max_rainfall_24hr",
        "value": 87.2,
        "station": "ยโสธร",
        "province": "ยโสธร"
      }
    },
    {
      "type": "Feature",
      "geometry": {
        "type": "Point",
        "coordinates": [
          99.04833,
          19.93139
        ]
      },
      "properties": {
        "date": "06/29/2026",
        "metric": "min_temp",
        "value": 18.3,
        "station": "ดอยอ่างขาง",
        "province": "เชียงใหม่"
      }
    },
    {
      "type": "Feature",
      "geometry": {
        "type": "Point",
        "coordinates": [
          102.16861,
          14.71889
        ]
      },
      "properties": {
        "date": "06/29/2026",
        "metric": "max_temp",
        "value": 36.9,
        "station": "โชคชัย",
        "province": "นครราชสีมา"
      }
    },
    {
      "type": "Feature",
      "geometry": {
        "type": "Point",
        "coordinates": [
          98.25222,
          8.68417
        ]
      },
      "properties": {
        "date": "06/29/2026",
        "metric": "max_rainfall_24hr",
        "value": 138.7,
        "station": "ตะกั่วป่า",
        "province": "พังงา"
      }
    },
    {
      "type": "Feature",
      "geometry": {
        "type": "Point",
        "coordinates": [
          99.04833,
          19.93139
        ]
      },
      "properties": {
        "date": "06/30/2026",
        "metric": "min_temp",
        "value": 19.3,
        "station": "ดอยอ่างขาง",
        "province": "เชียงใหม่"
      }
    },
    {
      "type": "Feature",
      "geometry": {
        "type": "Point",
        "coordinates": [
          99.79239,
          13.48931
        ]
      },
      "properties": {
        "date": "06/30/2026",
        "metric": "max_temp",
        "value": 35.5,
        "station": "ราชบุรี",
        "province": "ราชบุรี"
      }
    },
    {
      "type": "Feature",
      "geometry": {
        "type": "Point",
        "coordinates": [
          102.73303,
          17.86717
        ]
      },
      "properties": {
        "date": "06/30/2026",
        "metric": "max_rainfall_24hr",
        "value": 69.6,
        "station": "หนองคาย",
        "province": "หนองคาย"
      }
    },
    {
      "type": "Feature",
      "geometry": {
        "type": "Point",
        "coordinates": [
          99.04833,
          19.93139
        ]
      },
      "properties": {
        "date": "07/01/2026",
        "metric": "min_temp",
        "value": 18.6,
        "station": "ดอยอ่างขาง",
        "province": "เชียงใหม่"
      }
    },
    {
      "type": "Feature",
      "geometry": {
        "type": "Point",
        "coordinates": [
          98.31444,
          8.145
        ]
      },
      "properties": {
        "date": "07/01/2026",
        "metric": "max_temp",
        "value": 30.4,
        "station": "ภูเก็ต (ศูนย์ฯ)",
        "province": "ภูเก็ต"
      }
    },
    {
      "type": "Feature",
      "geometry": {
        "type": "Point",
        "coordinates": [
          102.73303,
          17.86717
        ]
      },
      "properties": {
        "date": "07/01/2026",
        "metric": "max_rainfall_24hr",
        "value": 122.7,
        "station": "หนองคาย",
        "province": "หนองคาย"
      }
    }
  ]
}